[{"song_location":{"location":"Calgary","latitude":51.05011,"longitude":-114.08529},"name":"Hippies In Calgary - 2000 Version","id":"5BzN93qgAZYuGA0KlWSLLX","artists":[{"name":"Chris LeDoux","id":"4K3DSWzghkGUcQOEZG9gpo"}],"album":{"id":"2I1Dv1JxtiD285lsPeaHye","name":"Anthology, Volume 1","available_markets":"AD,AR,AT,AU,BE,BG,BO,BR,CA,CH,CL,CO,CR,CY,CZ,DE,DK,DO,EC,EE,ES,FI,FR,GB,GR,GT,HK,HN,HU,IE,IS,IT,LI,LT,LU,LV,MC,MT,MX,MY,NI,NL,NO,NZ,PA,PE,PH,PL,PT,PY,RO,SE,SG,SI,SK,SV,TR,TW,US,UY"},"available_markets":"AD,AR,AT,AU,BE,BG,BO,BR,CA,CH,CL,CO,CR,CY,CZ,DE,DK,DO,EC,EE,ES,FI,FR,GB,GR,GT,HK,HN,HU,IE,IS,IT,LI,LT,LU,LV,MC,MT,MX,MY,NI,NL,NO,NZ,PA,PE,PH,PL,PT,PY,RO,SE,SG,SI,SK,SV,TR,TW,US,UY","favorite":"off","artist_location":{"latitude":41.1348,"location":"Cheyenne, WY, US","longitude":-104.822,"location_link":"Cheyenne* WY* US"}},{"song_location":{"location":"Calgary","latitude":51.05011,"longitude":-114.08529},"name":"Calgary","id":"4lGb7vjGqK8OZhXRozj0Go","artists":[{"name":"Bon Iver","id":"4LEiUm1SRbFMgfqnQTwUbQ"}],"album":{"id":"1JlvIsP2f6ckoa62aN7kLn","name":"Bon Iver","available_markets":"AR,AU,BO,CA,CL,CO,CR,CY,DO,EC,GT,HN,MX,NI,NZ,PA,PE,PY,SV,US,UY"},"available_markets":"AR,AU,BO,CA,CL,CO,CR,CY,DO,EC,GT,HN,MX,NI,NZ,PA,PE,PY,SV,US,UY","favorite":"off","artist_location":{"latitude":44.8165,"location":"Eau Claire, WI, US","longitude":-91.5012,"location_link":"Eau Claire* WI* US"}},{"song_location":{"location":"Calgary","latitude":51.05011,"longitude":-114.08529},"name":"Calgary Girls","id":"7qlJdu3P9y0fbynfUD3KWJ","artists":[{"name":"The Smith Street Band","id":"6DW1Yqi5B34jRtn9hPLvFp"}],"album":{"id":"1IMUlxG2oiDjFE1yOCO9qy","name":"Throw Me In The River","available_markets":"MX,US"},"available_markets":"MX,US","favorite":"off","artist_location":{"latitude":-37.816667,"location":"Melbourne Australia","longitude":144.966667,"location_link":"Melbourne Australia"}},{"song_location":{"location":"Calgary","latitude":51.05011,"longitude":-114.08529},"name":"Actually, I'm Just Wearing Your Glasses","id":"6g42LqhIL7vItIUic8iGIc","artists":[{"name":"empire! empire! (i was a lonely estate)","id":"3IaqcRr2teHDEqhRE5emu9"}],"album":{"id":"3Fo0csH4XyUKaVoRE9t4Cm","name":"Middle Discography","available_markets":"AD,AR,AT,AU,BE,BG,BO,BR,CA,CH,CL,CO,CR,CY,CZ,DE,DK,DO,EC,EE,ES,FI,FR,GB,GR,GT,HK,HN,HU,IE,IS,IT,LI,LT,LU,LV,MC,MT,MX,MY,NI,NL,NO,NZ,PA,PE,PH,PL,PT,PY,RO,SE,SG,SI,SK,SV,TR,TW,US,UY"},"available_markets":"AD,AR,AT,AU,BE,BG,BO,BR,CA,CH,CL,CO,CR,CY,CZ,DE,DK,DO,EC,EE,ES,FI,FR,GB,GR,GT,HK,HN,HU,IE,IS,IT,LI,LT,LU,LV,MC,MT,MX,MY,NI,NL,NO,NZ,PA,PE,PH,PL,PT,PY,RO,SE,SG,SI,SK,SV,TR,TW,US,UY","favorite":"off","artist_location":{"latitude":42.7937,"location":"Fenton, MI, US","longitude":-83.7053,"location_link":"Fenton* MI* US"}}]
