[{"song_location":{"location":"Philadelphia","latitude":39.95234,"longitude":-75.16379},"name":"Dancing in the Streets","id":"3fl2t8ziUqGWYre02tMQk9","artists":[{"name":"J. Paul Jr.","id":"2cbGWF4B1y7jmAk7hSXdIP"}],"album":{"id":"6VqJNQ0nHgHgbfmDxWTqON","name":"Uno","available_markets":"AD,AR,AT,AU,BE,BG,BO,BR,CA,CH,CL,CO,CR,CY,CZ,DE,DK,DO,EC,EE,ES,FI,FR,GB,GR,GT,HK,HN,HU,IE,IS,IT,LI,LT,LU,LV,MC,MT,MX,MY,NI,NL,NO,NZ,PA,PE,PH,PL,PT,PY,RO,SE,SG,SI,SK,SV,TR,TW,US,UY"},"available_markets":"AD,AR,AT,AU,BE,BG,BO,BR,CA,CH,CL,CO,CR,CY,CZ,DE,DK,DO,EC,EE,ES,FI,FR,GB,GR,GT,HK,HN,HU,IE,IS,IT,LI,LT,LU,LV,MC,MT,MX,MY,NI,NL,NO,NZ,PA,PE,PH,PL,PT,PY,RO,SE,SG,SI,SK,SV,TR,TW,US,UY","favorite":"off","artist_location":{"latitude":30.6892,"location":"Ville Platte, LA, US","longitude":-92.2761,"location_link":"Ville Platte* LA* US"}},{"song_location":{"location":"Philadelphia","latitude":39.95234,"longitude":-75.16379},"name":"Philadelphia Freedom","id":"3KFSoXU5dom16qdvKEAMsx","artists":[{"name":"Elton John","id":"3PhoLpVuITZKcymswpck5b"}],"album":{"id":"6CPTYd8BQRbF6VzhnTWIfL","name":"The Greatest Hits 1970-2002","available_markets":"US"},"available_markets":"US","favorite":"off","artist_location":{"latitude":51.5968712,"location":"Pinner, UK","longitude":-0.3770142,"location_link":"Pinner* UK"}},{"song_location":{"location":"Philadelphia","latitude":39.95234,"longitude":-75.16379},"name":"Punk Rock Girl","id":"68oq778Oz4cLuI1vf6RkKN","artists":[{"name":"The Dead Milkmen","id":"2fhngmJMaaKcdhXHCa4cPK"}],"album":{"id":"2DuGRzpsUNe6jzGpCniZYR","name":"Death Rides A Pale Cow","available_markets":"AD,AR,AT,AU,BE,BG,BO,BR,CA,CH,CL,CO,CR,CY,CZ,DE,DK,DO,EC,EE,ES,FI,FR,GB,GR,GT,HK,HN,HU,IE,IS,IT,LI,LT,LU,LV,MC,MT,MX,MY,NI,NL,NO,NZ,PA,PE,PH,PL,PT,PY,RO,SE,SG,SI,SK,SV,TR,TW,US,UY"},"available_markets":"AD,AR,AT,AU,BE,BG,BO,BR,CA,CH,CL,CO,CR,CY,CZ,DE,DK,DO,EC,EE,ES,FI,FR,GB,GR,GT,HK,HN,HU,IE,IS,IT,LI,LT,LU,LV,MC,MT,MX,MY,NI,NL,NO,NZ,PA,PE,PH,PL,PT,PY,RO,SE,SG,SI,SK,SV,TR,TW,US,UY","favorite":"off","artist_location":{"latitude":39.9523,"location":"Philadelphia, PA, US","longitude":-75.1624,"location_link":"Philadelphia* PA* US"}},{"song_location":{"location":"Philadelphia","latitude":39.95234,"longitude":-75.16379},"name":"Motown Philly","id":"5z5Vq7HblCgzFTxgZh4yQ5","artists":[{"name":"The Trammps","id":"1zgNpeHQe8GulzfVkYP2VK"}],"album":{"id":"4qo9U0FuuVhV7WLBSAs1jO","name":"Choice Soul Cuts","available_markets":"CA,MX,US"},"available_markets":"CA,MX,US","favorite":"off","artist_location":{"latitude":39.952335,"location":"Philadelphia, PA","longitude":-75.163789,"location_link":"Philadelphia* PA"}},{"song_location":{"location":"Philadelphia","latitude":39.95234,"longitude":-75.16379},"name":"Uneasy Rider","id":"4jIfTHzqYWspDy9wlgvTjp","artists":[{"name":"Charlie Daniels","id":"6UpFUXmXvDV7Qj1SPymamh"}],"album":{"id":"0a0a2Z9oZrxyDIbd8CSIYz","name":"16 Biggest Hits","available_markets":"AR,AU,BO,BR,CA,CL,CO,CR,DO,EC,GT,HK,HN,MX,MY,NI,NZ,PA,PE,PH,PY,SG,SV,TW,US,UY"},"available_markets":"AR,AU,BO,BR,CA,CL,CO,CR,DO,EC,GT,HK,HN,MX,MY,NI,NZ,PA,PE,PH,PY,SG,SV,TW,US,UY","favorite":"off","artist_location":{"latitude":36.1952,"location":"Mount Juliet, TN, US","longitude":-86.5186,"location_link":"Mount Juliet* TN* US"}},{"song_location":{"location":"Philadelphia","latitude":39.95234,"longitude":-75.16379},"name":"Summertime Sadness","id":"2dBwB667LHQkLhdYlwLUZK","artists":[{"name":"Lana Del Rey","id":"00FQb4jTyendYWaN8pK0wa"}],"album":{"id":"5PW8nAtvf2HV8RYZFd4IrX","name":"Born To Die - The Paradise Edition","available_markets":"CA,MX,US"},"available_markets":"CA,MX,US","favorite":"off","artist_location":{"latitude":44.2821,"location":"Lake Placid, NY, US","longitude":-73.9827,"location_link":"Lake Placid* NY* US"}},{"song_location":{"location":"Philadelphia","latitude":39.95234,"longitude":-75.16379},"name":"Sweet Little Sixteen","id":"4DEbXdYvto9BB3TyYyxLKn","artists":[{"name":"Chuck Berry","id":"293zczrfYafIItmnmM3coR"}],"album":{"id":"5oe2YLmp9uZgV0lKguAadC","name":"20th Century Masters: The Millennium Collection: Best Of Chuck Berry","available_markets":"CA,MX,US"},"available_markets":"CA,MX,US","favorite":"off","artist_location":{"latitude":38.6277,"location":"St. Louis, MO, US","longitude":-90.1995,"location_link":"St. Louis* MO* US"}},{"song_location":{"location":"Philadelphia","latitude":39.95234,"longitude":-75.16379},"name":"Sailing To Philadelphia","id":"5dFbGFPR2GkgIPvfnAo3R3","artists":[{"name":"Mark Knopfler","id":"0FI0kxP0BWurTz8cB8BBug"}],"album":{"id":"1DrdpkCNbP2QxDvtsASs63","name":"Sailing To Philadelphia","available_markets":"US"},"available_markets":"US","favorite":"off","artist_location":{"latitude":55.8578,"location":"Glasgow, Scotland, GB","longitude":-4.24251,"location_link":"Glasgow* Scotland* GB"}},{"song_location":{"location":"Philadelphia","latitude":39.95234,"longitude":-75.16379},"name":"Night Train","id":"2XzS4vuHyjZ3jBhn1slvU4","artists":[{"name":"Amos Lee","id":"0QrowybipCKUDnq5y10PD2"}],"album":{"id":"7zAMTPQbo4MM4trmSpvsNo","name":"Supply And Demand","available_markets":"AD,AR,AT,AU,BE,BG,BO,BR,CA,CH,CL,CO,CR,CY,CZ,DE,DK,DO,EC,EE,ES,FI,FR,GB,GR,GT,HK,HN,HU,IE,IS,IT,LI,LT,LU,LV,MC,MT,MX,MY,NI,NL,NO,NZ,PA,PE,PH,PL,PT,PY,RO,SE,SG,SI,SK,SV,TR,TW,US,UY"},"available_markets":"AD,AR,AT,AU,BE,BG,BO,BR,CA,CH,CL,CO,CR,CY,CZ,DE,DK,DO,EC,EE,ES,FI,FR,GB,GR,GT,HK,HN,HU,IE,IS,IT,LI,LT,LU,LV,MC,MT,MX,MY,NI,NL,NO,NZ,PA,PE,PH,PL,PT,PY,RO,SE,SG,SI,SK,SV,TR,TW,US,UY","favorite":"off","artist_location":{"latitude":40.001811,"location":"Philadelphia, PA","longitude":-75.11787,"location_link":"Philadelphia* PA"}},{"song_location":{"location":"Philadelphia","latitude":39.95234,"longitude":-75.16379},"name":"I'm In a Philly Mood","id":"2T0U0YXfoeBmy3wyrnj4vD","artists":[{"name":"Daryl Hall","id":"5jit9WjiAxxvdA0onOHBLd"}],"album":{"id":"11QAdOX1e4jLTyqFTchSBr","name":"Soul Alone","available_markets":"AD,AR,AT,AU,BE,BG,BO,BR,CA,CH,CL,CO,CR,CY,CZ,DE,DK,DO,EC,EE,ES,FI,FR,GB,GR,GT,HK,HN,HU,IE,IS,IT,LI,LT,LU,LV,MC,MT,MX,MY,NI,NL,NO,NZ,PA,PE,PH,PL,PT,PY,RO,SE,SG,SI,SK,SV,TR,TW,US,UY"},"available_markets":"AD,AR,AT,AU,BE,BG,BO,BR,CA,CH,CL,CO,CR,CY,CZ,DE,DK,DO,EC,EE,ES,FI,FR,GB,GR,GT,HK,HN,HU,IE,IS,IT,LI,LT,LU,LV,MC,MT,MX,MY,NI,NL,NO,NZ,PA,PE,PH,PL,PT,PY,RO,SE,SG,SI,SK,SV,TR,TW,US,UY","favorite":"off","artist_location":{"latitude":40.2464,"location":"Pottstown, PA, US","longitude":-75.648,"location_link":"Pottstown* PA* US"}},{"song_location":{"location":"Philadelphia","latitude":39.95234,"longitude":-75.16379},"name":"Streets of Philadelphia","id":"33PYfsUghmJi6rcKCfJ7my","artists":[{"name":"Bruce Springsteen","id":"3eqjTLE0HfPfh78zjh6TqT"}],"album":{"id":"56JtQFrVKdKT70rkKligWx","name":"The Essential Bruce Springsteen","available_markets":"AD,AR,AT,AU,BE,BG,BO,BR,CA,CH,CL,CO,CR,CY,CZ,DE,DK,DO,EC,EE,ES,FI,FR,GB,GR,GT,HK,HN,HU,IE,IS,IT,LI,LT,LU,LV,MC,MT,MX,MY,NI,NL,NO,NZ,PA,PE,PH,PL,PT,PY,RO,SE,SG,SI,SK,SV,TR,TW,US,UY"},"available_markets":"AD,AR,AT,AU,BE,BG,BO,BR,CA,CH,CL,CO,CR,CY,CZ,DE,DK,DO,EC,EE,ES,FI,FR,GB,GR,GT,HK,HN,HU,IE,IS,IT,LI,LT,LU,LV,MC,MT,MX,MY,NI,NL,NO,NZ,PA,PE,PH,PL,PT,PY,RO,SE,SG,SI,SK,SV,TR,TW,US,UY","favorite":"off","artist_location":{"latitude":40.2345,"location":"Freehold, NJ, US","longitude":-74.295,"location_link":"Freehold* NJ* US"}},{"song_location":{"location":"Philadelphia","latitude":39.95234,"longitude":-75.16379},"name":"Philly Night","id":"50fE09mawDKkotzLnxQlF6","artists":[{"name":"Berry Jones","id":"3P7fTb3EiX149sb62xxe4A"}],"album":{"id":"18nt8Kb9j8FyV3x53j3jDI","name":"Tonight","available_markets":"AD,AR,AT,AU,BE,BG,BO,BR,CA,CH,CL,CO,CR,CY,CZ,DE,DK,DO,EC,EE,ES,FI,FR,GB,GR,GT,HK,HN,HU,IE,IS,IT,LI,LT,LU,LV,MC,MT,MX,MY,NI,NL,NO,NZ,PA,PE,PH,PL,PT,PY,RO,SE,SG,SI,SK,SV,TR,TW,US,UY"},"available_markets":"AD,AR,AT,AU,BE,BG,BO,BR,CA,CH,CL,CO,CR,CY,CZ,DE,DK,DO,EC,EE,ES,FI,FR,GB,GR,GT,HK,HN,HU,IE,IS,IT,LI,LT,LU,LV,MC,MT,MX,MY,NI,NL,NO,NZ,PA,PE,PH,PL,PT,PY,RO,SE,SG,SI,SK,SV,TR,TW,US,UY","favorite":"off","artist_location":{"latitude":39.9523,"location":"Philadelphia, PA, US","longitude":-75.1624,"location_link":"Philadelphia* PA* US"}},{"song_location":{"location":"Philadelphia","latitude":39.95234,"longitude":-75.16379},"name":"Going Back to Philly","id":"1PKONimY177wGLyZtOCMFO","artists":[{"name":"Bobby James","id":"2BMkeaJIj0MMMFLBoUfT0c"}],"album":{"id":"0ri3SKv8ZHuXRFlHFLxIIb","name":"Vintage Louisiana Rock & Roll","available_markets":"AD,AR,AT,AU,BE,BG,BO,BR,CA,CH,CL,CO,CR,CY,CZ,DE,DK,DO,EC,EE,ES,FI,FR,GB,GR,GT,HK,HN,HU,IE,IS,IT,LI,LT,LU,LV,MC,MT,MX,MY,NI,NL,NO,NZ,PA,PE,PH,PL,PT,PY,RO,SE,SG,SI,SK,SV,TR,TW,US,UY"},"available_markets":"AD,AR,AT,AU,BE,BG,BO,BR,CA,CH,CL,CO,CR,CY,CZ,DE,DK,DO,EC,EE,ES,FI,FR,GB,GR,GT,HK,HN,HU,IE,IS,IT,LI,LT,LU,LV,MC,MT,MX,MY,NI,NL,NO,NZ,PA,PE,PH,PL,PT,PY,RO,SE,SG,SI,SK,SV,TR,TW,US,UY","favorite":"off","artist_location":{"latitude":36.069,"location":"Greensboro, NC, US","longitude":-79.7947,"location_link":"Greensboro* NC* US"}},{"song_location":{"location":"Philadelphia","latitude":39.95234,"longitude":-75.16379},"name":"Ms Philadelphia","id":"7HVpiZT01YM3osXLy5gaoo","artists":[{"name":"Soul.","id":"2DrCf3fzlJIA1XZK0RbDFt"}],"album":{"id":"5trPcQJ2WWBOSaWZt79v4U","name":"Love Overload","available_markets":"AD,AR,AT,AU,BE,BG,BO,BR,CA,CH,CL,CO,CR,CY,CZ,DE,DK,DO,EC,EE,ES,FI,FR,GB,GR,GT,HK,HN,HU,IE,IS,IT,LI,LT,LU,LV,MC,MT,MX,MY,NI,NL,NO,NZ,PA,PE,PH,PL,PT,PY,RO,SE,SG,SI,SK,SV,TR,TW,US,UY"},"available_markets":"AD,AR,AT,AU,BE,BG,BO,BR,CA,CH,CL,CO,CR,CY,CZ,DE,DK,DO,EC,EE,ES,FI,FR,GB,GR,GT,HK,HN,HU,IE,IS,IT,LI,LT,LU,LV,MC,MT,MX,MY,NI,NL,NO,NZ,PA,PE,PH,PL,PT,PY,RO,SE,SG,SI,SK,SV,TR,TW,US,UY","favorite":"off","artist_location":{"latitude":42.4405,"location":"Ithaca, NY, US","longitude":-76.4955,"location_link":"Ithaca* NY* US"}},{"song_location":{"location":"Philadelphia","latitude":39.95234,"longitude":-75.16379},"name":"Philadelphia Lawyer","id":"2xuNVJKj1fnFV1O004IZ9C","artists":[{"name":"Woody Guthrie","id":"4rAgFKtlTr66ic18YZZyF1"}],"album":{"id":"0HLyBbcohIOD6hkz5EigTo","name":"Woody At 100: The Woody Guthrie Centennial Collection","available_markets":"AD,AR,AT,AU,BE,BG,BO,BR,CA,CH,CL,CO,CR,CY,CZ,DE,DK,DO,EC,EE,ES,FI,FR,GB,GR,GT,HK,HN,HU,IE,IS,IT,LI,LT,LU,LV,MC,MT,MX,MY,NI,NL,NO,NZ,PA,PE,PH,PL,PT,PY,RO,SE,SG,SI,SK,SV,TR,TW,US,UY"},"available_markets":"AD,AR,AT,AU,BE,BG,BO,BR,CA,CH,CL,CO,CR,CY,CZ,DE,DK,DO,EC,EE,ES,FI,FR,GB,GR,GT,HK,HN,HU,IE,IS,IT,LI,LT,LU,LV,MC,MT,MX,MY,NI,NL,NO,NZ,PA,PE,PH,PL,PT,PY,RO,SE,SG,SI,SK,SV,TR,TW,US,UY","favorite":"off","artist_location":{"latitude":35.462681,"location":"Okemah, OK","longitude":-96.430286,"location_link":"Okemah* OK"}},{"song_location":{"location":"Philadelphia","latitude":39.95234,"longitude":-75.16379},"name":"Leaving Philadelphia (Arriving in Seattle)","id":"1EJwlUuDiVlTv4WZfKAABf","artists":[{"name":"Denison Witmer","id":"2sJ5Iicthbc9d8Sl1dpeSB"}],"album":{"id":"6r2Tlktv3SZWJf7WHUWTjx","name":"Philadelphia Songs","available_markets":"AD,AR,AT,AU,BE,BG,BO,BR,CA,CH,CL,CO,CR,CY,CZ,DE,DK,DO,EC,EE,ES,FI,FR,GB,GR,GT,HK,HN,HU,IE,IS,IT,LI,LT,LU,LV,MC,MT,MX,MY,NI,NL,NO,NZ,PA,PE,PH,PL,PT,PY,RO,SE,SG,SI,SK,SV,TR,TW,US,UY"},"available_markets":"AD,AR,AT,AU,BE,BG,BO,BR,CA,CH,CL,CO,CR,CY,CZ,DE,DK,DO,EC,EE,ES,FI,FR,GB,GR,GT,HK,HN,HU,IE,IS,IT,LI,LT,LU,LV,MC,MT,MX,MY,NI,NL,NO,NZ,PA,PE,PH,PL,PT,PY,RO,SE,SG,SI,SK,SV,TR,TW,US,UY","favorite":"off","artist_location":{"latitude":40.0237,"location":"Lancaster, PA, US","longitude":-76.3317,"location_link":"Lancaster* PA* US"}},{"song_location":{"location":"Philadelphia","latitude":39.95234,"longitude":-75.16379},"name":"Visions Of Johanna [Live, Philadelphia, March 18, 1995]","id":"6EuAgs9dT1Lh2MTLfkhxCU","artists":[{"name":"Grateful Dead","id":"4TMHGUX5WI7OOm53PqSDAT"}],"album":{"id":"6tq8IXlrYLkNZF3NWxIZCu","name":"Fallout From The Phil Zone","available_markets":"AD,AR,AT,AU,BE,BG,BO,BR,CA,CH,CL,CO,CR,CY,CZ,DE,DK,DO,EC,EE,ES,FI,FR,GB,GR,GT,HK,HN,HU,IE,IS,IT,LI,LT,LU,LV,MC,MT,MX,MY,NI,NL,NO,NZ,PA,PE,PH,PL,PT,PY,RO,SE,SG,SI,SK,SV,TR,TW,US,UY"},"available_markets":"AD,AR,AT,AU,BE,BG,BO,BR,CA,CH,CL,CO,CR,CY,CZ,DE,DK,DO,EC,EE,ES,FI,FR,GB,GR,GT,HK,HN,HU,IE,IS,IT,LI,LT,LU,LV,MC,MT,MX,MY,NI,NL,NO,NZ,PA,PE,PH,PL,PT,PY,RO,SE,SG,SI,SK,SV,TR,TW,US,UY","favorite":"off","artist_location":{"latitude":37.444122,"location":"Palo Alto, CA","longitude":-122.149915,"location_link":"Palo Alto* CA"}},{"song_location":{"location":"Philadelphia","latitude":39.95234,"longitude":-75.16379},"name":"I Love Living In The City","id":"65oRyr6vN9jaWnKjote3PT","artists":[{"name":"Danko Jones","id":"7CGoviGsNXYmGOBkXk8dtW"}],"album":{"id":"64aEErWzw99Ceaf93kZzpf","name":"We Sweat Blood","available_markets":"AD,AR,AT,AU,BE,BG,BO,BR,CH,CL,CO,CR,CY,CZ,DE,DK,DO,EC,EE,ES,FI,FR,GB,GR,GT,HK,HN,HU,IE,IS,IT,LI,LT,LU,LV,MC,MT,MX,MY,NI,NL,NO,NZ,PA,PE,PH,PL,PT,PY,RO,SE,SG,SI,SK,SV,TR,TW,US,UY"},"available_markets":"AD,AR,AT,AU,BE,BG,BO,BR,CH,CL,CO,CR,CY,CZ,DE,DK,DO,EC,EE,ES,FI,FR,GB,GR,GT,HK,HN,HU,IE,IS,IT,LI,LT,LU,LV,MC,MT,MX,MY,NI,NL,NO,NZ,PA,PE,PH,PL,PT,PY,RO,SE,SG,SI,SK,SV,TR,TW,US,UY","favorite":"off","artist_location":{"latitude":43.6486,"location":"Toronto, Ontario, CA","longitude":-79.3853,"location_link":"Toronto* Ontario* CA"}},{"song_location":{"location":"Philadelphia","latitude":39.95234,"longitude":-75.16379},"name":"East River Drive","id":"7AWqLC5PXdy59uP2KZxNim","artists":[{"name":"Grover Washington, Jr.","id":"05YVYeV4HxYp5rrWalvuE1"}],"album":{"id":"1lKYaRbV0AayVPss9i4oOp","name":"Anthology","available_markets":"AD,AR,AT,AU,BE,BG,BO,BR,CA,CH,CL,CO,CR,CY,CZ,DE,DK,DO,EC,EE,ES,FI,FR,GB,GR,GT,HK,HN,HU,IE,IS,IT,LI,LT,LU,LV,MC,MT,MX,MY,NI,NL,NO,NZ,PA,PE,PH,PL,PT,PY,RO,SE,SG,SI,SK,SV,TR,TW,US,UY"},"available_markets":"AD,AR,AT,AU,BE,BG,BO,BR,CA,CH,CL,CO,CR,CY,CZ,DE,DK,DO,EC,EE,ES,FI,FR,GB,GR,GT,HK,HN,HU,IE,IS,IT,LI,LT,LU,LV,MC,MT,MX,MY,NI,NL,NO,NZ,PA,PE,PH,PL,PT,PY,RO,SE,SG,SI,SK,SV,TR,TW,US,UY","favorite":"off","artist_location":{"latitude":42.8854,"location":"Buffalo, NY, US","longitude":-78.8785,"location_link":"Buffalo* NY* US"}},{"song_location":{"location":"Philadelphia","latitude":39.95234,"longitude":-75.16379},"name":"Freddy Freeloader","id":"60ZD7skJnn6QNnI8tqmSSH","artists":[{"name":"Jan Verwey","id":"5nu07UJG1QH5So19XQTMKG"}],"album":{"id":"1fQneA1fYTzbkIXRqQCdEL","name":"The Miles Davis Project","available_markets":"AD,AR,AT,AU,BE,BG,BO,BR,CA,CH,CL,CO,CR,CY,CZ,DE,DK,DO,EC,EE,ES,FI,FR,GB,GR,GT,HK,HN,HU,IE,IS,IT,LI,LT,LU,LV,MC,MT,MX,MY,NI,NL,NO,NZ,PA,PE,PH,PL,PT,PY,RO,SE,SG,SI,SK,SV,TR,TW,US,UY"},"available_markets":"AD,AR,AT,AU,BE,BG,BO,BR,CA,CH,CL,CO,CR,CY,CZ,DE,DK,DO,EC,EE,ES,FI,FR,GB,GR,GT,HK,HN,HU,IE,IS,IT,LI,LT,LU,LV,MC,MT,MX,MY,NI,NL,NO,NZ,PA,PE,PH,PL,PT,PY,RO,SE,SG,SI,SK,SV,TR,TW,US,UY","favorite":"off","artist_location":{"latitude":52.1082,"location":"Netherlands","longitude":5.32986,"location_link":"Netherlands"}},{"song_location":{"location":"Philadelphia","latitude":39.95234,"longitude":-75.16379},"name":"Philadelphia U.S.A","id":"2HSnaieuRwAxZEjZ9j25Yd","artists":[{"name":"Alice Babs","id":"3omPckNeXtMpCdOXVfcOST"}],"album":{"id":"0AdHlqgm8VLavFkdo8enyT","name":"Vintage Pop No. 141 - EP: Philadelphia U.S.A","available_markets":"AD,AR,AT,AU,BE,BG,BO,BR,CA,CH,CL,CO,CR,CY,CZ,DE,DK,DO,EC,EE,ES,FI,FR,GB,GR,GT,HK,HN,HU,IE,IS,IT,LI,LT,LU,LV,MC,MT,MX,MY,NI,NL,NO,NZ,PA,PE,PH,PL,PT,PY,RO,SE,SG,SI,SK,SV,TR,TW,US,UY"},"available_markets":"AD,AR,AT,AU,BE,BG,BO,BR,CA,CH,CL,CO,CR,CY,CZ,DE,DK,DO,EC,EE,ES,FI,FR,GB,GR,GT,HK,HN,HU,IE,IS,IT,LI,LT,LU,LV,MC,MT,MX,MY,NI,NL,NO,NZ,PA,PE,PH,PL,PT,PY,RO,SE,SG,SI,SK,SV,TR,TW,US,UY","favorite":"off","artist_location":{"latitude":56.6661,"location":"Kalmar, Kalmar, SE","longitude":16.3637,"location_link":"Kalmar* Kalmar* SE"}},{"song_location":{"location":"Philadelphia","latitude":39.95234,"longitude":-75.16379},"name":"Fall In Philadelphia","id":"4JsRR4poQA4L4hpe7fB8P9","artists":[{"name":"Daryl Hall","id":"5jit9WjiAxxvdA0onOHBLd"}],"album":{"id":"0UtB8zWnd5qGNyuoJHflzq","name":"Whole Oats","available_markets":"AD,AR,AT,AU,BE,BG,BO,BR,CA,CH,CL,CO,CR,CY,CZ,DE,DK,DO,EC,EE,ES,FI,FR,GB,GR,GT,HK,HN,HU,IE,IS,IT,LI,LT,LU,LV,MC,MT,MX,MY,NI,NL,NO,NZ,PA,PE,PH,PL,PT,PY,RO,SE,SG,SI,SK,SV,TR,TW,US,UY"},"available_markets":"AD,AR,AT,AU,BE,BG,BO,BR,CA,CH,CL,CO,CR,CY,CZ,DE,DK,DO,EC,EE,ES,FI,FR,GB,GR,GT,HK,HN,HU,IE,IS,IT,LI,LT,LU,LV,MC,MT,MX,MY,NI,NL,NO,NZ,PA,PE,PH,PL,PT,PY,RO,SE,SG,SI,SK,SV,TR,TW,US,UY","favorite":"off","artist_location":{"latitude":40.2464,"location":"Pottstown, PA, US","longitude":-75.648,"location_link":"Pottstown* PA* US"}},{"song_location":{"location":"Philadelphia","latitude":39.95234,"longitude":-75.16379},"name":"Reno Bound","id":"1dZRiOtaioFYg8gp6bWWn4","artists":[{"name":"Southern Pacific","id":"25juHmFHOa3KIZ7uEqZ1TX"}],"album":{"id":"1xHAYsxTyblLcToFzmWATW","name":"Greatest Hits","available_markets":"AD,AR,AT,AU,BE,BG,BO,BR,CA,CH,CL,CO,CR,CY,CZ,DE,DK,DO,EC,EE,ES,FI,FR,GB,GR,GT,HK,HN,HU,IE,IS,IT,LI,LT,LU,LV,MC,MT,MX,MY,NI,NL,NO,NZ,PA,PE,PH,PL,PT,PY,RO,SE,SG,SI,SK,SV,TR,TW,US,UY"},"available_markets":"AD,AR,AT,AU,BE,BG,BO,BR,CA,CH,CL,CO,CR,CY,CZ,DE,DK,DO,EC,EE,ES,FI,FR,GB,GR,GT,HK,HN,HU,IE,IS,IT,LI,LT,LU,LV,MC,MT,MX,MY,NI,NL,NO,NZ,PA,PE,PH,PL,PT,PY,RO,SE,SG,SI,SK,SV,TR,TW,US,UY","favorite":"off","artist_location":{"latitude":37.1679,"location":"United States","longitude":-95.845,"location_link":"United States"}}]
